[
    {
        "name": "d&a Hummus Bistro",
        "street": "Westerstraat 136",
        "postal_code": "1015 MP",
        "locality": "Amsterdam",
        "country": "Netherlands",
        "url": "https://dna-hummusbistro.com",
        "location": {
            "lat": 52.3784317,
            "lng": 4.8826728
        },
        "rating": 9.4
    },
    {
        "name": "Bakers & Roasters",
        "street": "Kadijksplein 16",
        "postal_code": "1018 AC",
        "locality": "Amsterdam",
        "country": "Netherlands",
        "url": "http://www.bakersandroasters.com",
        "location": {
            "lat": 52.35734799999999,
            "lng": 4.8898908
        },
        "rating": 9.4
    },
    {
        "name": "Brut de Mer",
        "street": "Gerard Douplein 8",
        "postal_code": "1072 VE",
        "locality": "Amsterdam",
        "country": "Netherlands",
        "url": "http://brutdemer.nl",
        "location": {
            "lat": 52.3557886,
            "lng": 4.8925617
        },
        "rating": 8.9
    },
    {
        "name": "The Happy Pig Pancake Shop",
        "street": "Rosmarijnsteeg 12",
        "postal_code": "1012 RP",
        "locality": "Amsterdam",
        "country": "Netherlands",
        "url": "https://www.thehappypig.nl",
        "location": {
            "lat": 52.37039790000001,
            "lng": 4.8892859
        },
        "rating": 8.3
    },
    {
        "name": "Casa Nostra",
        "street": "Ceintuurbaan 233",
        "postal_code": "1074 CW",
        "locality": "Amsterdam",
        "country": "Netherlands",
        "url": "http://casanostrakitchen.nl/nuovosito/",
        "location": {
            "lat": 52.3554572948612,
            "lng": 4.90315903
        },
        "rating": 8.6
    },
    {
        "name": "BAK restaurant",
        "street": "Van Diemenstraat 408",
        "postal_code": "1013 CR",
        "locality": "Amsterdam",
        "country": "Netherlands",
        "url": "https://bakrestaurant.nl",
        "location": {
            "lat": 52.390432142576856,
            "lng": 4.887080
        },
        "rating": 9.0
    },
    {
        "name": "Worst",
        "street": "Barentszstraat 171",
        "postal_code": "1013 NM",
        "locality": "Amsterdam",
        "country": "Netherlands",
        "url": "http://deworst.nl",
        "location": {
            "lat": 52.3888303,
            "lng": 4.8855103
        },
        "rating": 8.3
    },
    {
        "name": "Restaurant Stork",
        "street": "Gedempt Hamerkanaal 201",
        "postal_code": "1021 KP",
        "locality": "Amsterdam",
        "country": "Netherlands",
        "url": "http://www.restaurantstork.nl",
        "location": {
            "lat": 52.38217574223757,
            "lng": 4.92032524
        },
        "rating": 8.3
    }
]
